[
  {
    "name": "한국여성의전화 여성인권상담소",
    "lat": 37.609697376,
    "lng": 126.938863038,
    "address": "서울시 은평구 진흥로16길 8-4",
    "phone": "02-3156-5400"
  },
  {
    "name": "양실가정상담센터",
    "lat": 37.560451374,
    "lng": 127.011289709,
    "address": "서울시 중구 청구로 19길 9-15",
    "phone": "02-2238-6551"
  },
  {
    "name": "서울성동가정상담센터",
    "lat": 37.564433877,
    "lng": 127.031034608,
    "address": "서울시 성동구 무학로2길 7. 3층",
    "phone": "02-2297-2911"
  },
  {
    "name": "월계우리통합상담소",
    "lat": 37.627244532,
    "lng": 127.052765495,
    "address": "서울 노원구 초안산로1길 51, 월계종합사회복지관 2층",
    "phone": "02-904-0179"
  },
  {
    "name": "은평종합사회복지관 부설 은평가정폭력상담소",
    "lat": 37.593101049,
    "lng": 126.901114099,
    "address": "서울시 은평구 은평터널로 48",
    "phone": "02-326-1366"
  },
  {
    "name": "서대문가정폭력관련상담소",
    "lat": 37.563749556,
    "lng": 126.964632026,
    "address": "서대문구 충정로 53, 유원골든타워 1811호",
    "phone": "02-364-0413"
  },
  {
    "name": "(사)남성의전화 서울가정폭력상담소",
    "lat": 37.59418281,
    "lng": 127.085353819,
    "address": "서울 중랑구 면목로 85길 12-24 2층",
    "phone": "02-2653-1366"
  },
  {
    "name": "나우미가정폭력상담센터",
    "lat": 37.52710827,
    "lng": 126.870745408,
    "address": "서울시 양천구 목동서로 225, 대한민국예술인센터 1213호",
    "phone": "02-2062-1366"
  },
  {
    "name": "서울강서양천여성의전화 부설 강서양천가정폭력상담소",
    "lat": 37.540888583,
    "lng": 126.840715874,
    "address": "서울시 강서구 강서로 159 인폼빌딩 5층",
    "phone": "02-2605-8455"
  },
  {
    "name": "동산가정폭력상담소",
    "lat": 37.488702694,
    "lng": 126.995378197,
    "address": "서울시 서초구 서초대로 27길 10-10",
    "phone": "02-599-7646"
  },
  {
    "name": "까리따스가정폭력상담소",
    "lat": 37.506978206,
    "lng": 127.101355193,
    "address": "서울시 송파구 석촌호수로 220 보정빌딩 402호",
    "phone": "02-2202-7806"
  },
  {
    "name": "(사)부산여성장애인연대 부설 성가정통합상담소",
    "lat": 35.113926225,
    "lng": 129.040712658,
    "address": "부산 동구 중앙대로 196번길 12-3, 부산장애인종합회관 4층",
    "phone": "051-5837-7356"
  },
  {
    "name": "(사)부산여성의전화 성·가정폭력상담소",
    "lat": 35.155353302,
    "lng": 129.038406149,
    "address": "부산광역시 부산진구 가야대로 607, 4층(가야동)",
    "phone": "051-817-4344"
  },
  {
    "name": "부산성폭력가정폭력상담소",
    "lat": 35.221181368,
    "lng": 129.085527682,
    "address": "부산시 동래구 중앙대로 1523 SK허브스카이 A3동 05,06호",
    "phone": "051-558-8833"
  },
  {
    "name": "다함께 성·가정상담센터",
    "lat": 35.169073599,
    "lng": 129.112336202,
    "address": "부산시 수영구 연수로 392",
    "phone": "051-753-1377"
  },
  {
    "name": "사)기장열린상담소 부설 성.가정폭력통합상담소",
    "lat": 35.243359353,
    "lng": 129.213915485,
    "address": "부산 기장군 기장읍 차성로 290, 404호(동양프라자)",
    "phone": "051-531-1366"
  },
  {
    "name": "중부산가정폭력상담소",
    "lat": 35.104896354,
    "lng": 129.035939936,
    "address": "부산시중구 중앙대로 81번길2",
    "phone": "051-462-7177"
  },
  {
    "name": "(사)부산가정법률상담소 부설 가정폭력관련상담소",
    "lat": 35.138156908,
    "lng": 129.060270531,
    "address": "부산시 조방로 49번길 29 705호(범일동, 호림빌딩)",
    "phone": "051-469-2987"
  },
  {
    "name": "희망의전화 가정폭력상담소",
    "lat": 35.138201863,
    "lng": 129.107129168,
    "address": "부산시 남구 황령대로 488, 원자빌딩 5층(대연동)",
    "phone": "051-623-1399,1488"
  },
  {
    "name": "사)여성문화인권센터 부설 가정폭력상담소",
    "lat": 35.211911956,
    "lng": 129.015055015,
    "address": "부산시 북구 만덕대로 90번길 13 대방상가 3층 305호",
    "phone": "051-333-1360"
  },
  {
    "name": "사하가정폭력상담소",
    "lat": 35.067432191,
    "lng": 128.979799334,
    "address": "부산광역시 사하구 다대로 399-1, 2층(다대동)",
    "phone": "051-205-8296"
  },
  {
    "name": "강서가족상담센터",
    "lat": 35.098399871,
    "lng": 128.919837056,
    "address": "부산광역시 강서구 명지국제8로 245, 3층 41호",
    "phone": "051-204-8896"
  },
  {
    "name": "대구여성통합상담소",
    "lat": 35.873051516,
    "lng": 128.593699847,
    "address": "대구 중구 서성로14길 112, 3층(향촌동 52-6)",
    "phone": "053-744-3288"
  },
  {
    "name": "대구여성장애인통합상담소",
    "lat": 35.830742052,
    "lng": 128.551873629,
    "address": "대구 달서구 월배로 410, 4층(송현동 220-3)",
    "phone": "053-637-6057,6064"
  },
  {
    "name": "영남가정폭력상담소",
    "lat": 35.887310015,
    "lng": 128.63871363,
    "address": "대구 동구 아양로49길 6(신암동 1544-6)",
    "phone": "053-953-2866"
  },
  {
    "name": "사)대구여성의전화 부설 여성인권상담소 피어라",
    "lat": 35.845280763,
    "lng": 128.595239864,
    "address": "대구 남구 봉덕로 41, 5층(봉덕동, 동영빌딩)",
    "phone": "053-471-6484"
  },
  {
    "name": "(사)인천광역시여성단체협의회 부설 가정폭력·성폭력 통합상담소",
    "lat": 37.458830709,
    "lng": 126.678419576,
    "address": "인천 미추홀구 경인로 345(명품관 3층)",
    "phone": "032-865-1365"
  },
  {
    "name": "서인천 가정폭력·성폭력 통합상담소",
    "lat": 37.551786986,
    "lng": 126.683528762,
    "address": "인천 서구 경명대로 676, 5층",
    "phone": "032-564-1366"
  },
  {
    "name": "인천행복한가정폭력·성폭력통합상담소",
    "lat": 37.47094043,
    "lng": 126.62784109,
    "address": "인천 중구 우현로 39번길 2, (3,4,5층)",
    "phone": "032-761-7799"
  },
  {
    "name": "인천가정상담센터 부설가정폭력상담소",
    "lat": 37.444740901,
    "lng": 126.670180935,
    "address": "인천 미추홀구 학익소로 29, 석목빌딩 508호",
    "phone": "032-865-1121"
  },
  {
    "name": "사)인천내일을여는집 가족상담소",
    "lat": 37.547437843,
    "lng": 126.727093919,
    "address": "인천 계양구 계양산로 102번길 5 계양구사회복지회관 지하1층",
    "phone": "032-543-7179"
  },
  {
    "name": "인천우리가정폭력·성폭력통합상담소",
    "lat": 37.412441024,
    "lng": 126.678107616,
    "address": "인천 연수구 샘말로 15-2, 2층",
    "phone": "032-834-1369"
  },
  {
    "name": "광주여성인권상담소",
    "lat": 35.15689256,
    "lng": 126.884758263,
    "address": "광주 서구 내방로 404번길 15",
    "phone": "062-363-0485"
  },
  {
    "name": "광주장애인가정상담소",
    "lat": 35.102065657,
    "lng": 126.899340456,
    "address": "광주 남구 효덕로 201, 1동 401호",
    "phone": "062-654-0420"
  },
  {
    "name": "광주YWCA통합상담지원센터",
    "lat": 35.139127979,
    "lng": 126.913893908,
    "address": "광주 남구 제중로 46번길 1",
    "phone": "062-672-1355"
  },
  {
    "name": "송광한가족상담센터",
    "lat": 35.184951135,
    "lng": 126.838564964,
    "address": "광주 광산구 수등로 272, 3층",
    "phone": "062-452-1366"
  },
  {
    "name": "대전YWCA성폭력·가정폭력통합상담소",
    "lat": 36.323462861,
    "lng": 127.426412969,
    "address": "대전 중구 대흥로 128",
    "phone": "042-2543-0389"
  },
  {
    "name": "대전열린가족통합상담센터",
    "lat": 36.32259553,
    "lng": 127.440609347,
    "address": "대전 동구 충무로 223, 2층(인동)",
    "phone": "042-625-5441"
  },
  {
    "name": "대전가톨릭가정·성폭력 통합상담소",
    "lat": 36.386745071,
    "lng": 127.423040223,
    "address": "대전 대덕구 신탄진로 63, 2층(연축동)",
    "phone": "042-636-2034"
  },
  {
    "name": "울산 남구 통합상담소",
    "lat": 35.535749587,
    "lng": 129.288056961,
    "address": "울산 남구 문수로 313 삼성빌딩 505호",
    "phone": "052-265-5570"
  },
  {
    "name": "동구가정성폭력통합상담소",
    "lat": 35.498927222,
    "lng": 129.421183246,
    "address": "울산 동구 대학길 59, 3층",
    "phone": "052-252-6778"
  },
  {
    "name": "(사)울산여성회부설 북구가정폭력상담소",
    "lat": 35.584606435,
    "lng": 129.366159607,
    "address": "울산 북구 상방로 141 2층",
    "phone": "052-287-1364"
  },
  {
    "name": "종촌종합복지센터 가정.성폭력통합상담소",
    "lat": 36.502765275,
    "lng": 127.246501218,
    "address": "세종 도움1로 116, 3층",
    "phone": "044-850-3094"
  },
  {
    "name": "(사)수원여성의전화 부설 성폭력가정폭력 통합상담소",
    "lat": 37.274746838,
    "lng": 127.018622399,
    "address": "경기도 수원시 팔달구 중부대로 20, 7층 (구천동, 녹산빌딩)",
    "phone": "031-232-7795"
  },
  {
    "name": "(사)성남여성의전화 부설 가정폭력성폭력통합상담소",
    "lat": 37.441634206,
    "lng": 127.133244476,
    "address": "경기도 성남시 수정구 수정로 115-1, 5층 5호 (태평동, 주민신협행복빌딩)",
    "phone": "031-751-2050"
  },
  {
    "name": "(사)안양여성의전화 부설 가정폭력성폭력통합상담소",
    "lat": 37.387529756,
    "lng": 126.930269792,
    "address": "경기도 안양시 만안구 안양로 149, 501호",
    "phone": "031-442-5385"
  },
  {
    "name": "(사)시흥여성의전화 부설 가정폭력성폭력통합상담소",
    "lat": 37.345538083,
    "lng": 126.735407789,
    "address": "경기도 시흥시 마유로 330, 대하빌딩 501~502호",
    "phone": "031-496-9390"
  },
  {
    "name": "이천가정.성상담소",
    "lat": 37.28109255,
    "lng": 127.446293899,
    "address": "경기도 이천시 영창로 213, 서영빌딩 F층",
    "phone": "031-638-7200"
  },
  {
    "name": "의왕가정성폭력상담소",
    "lat": 37.350748841,
    "lng": 126.977137992,
    "address": "경기도 의왕시 전주남이길 23-4",
    "phone": "031-459-1311"
  },
  {
    "name": "부천가정폭력상담소",
    "lat": 37.482569018,
    "lng": 126.782353905,
    "address": "경기도 부천시 성주로 272, 4층",
    "phone": "031-663-2313"
  },
  {
    "name": "행복가정 상담센터",
    "lat": 37.488807733,
    "lng": 126.759604629,
    "address": "경기도 부천시 석천로 13, 광명빌딩 4층",
    "phone": "032-612-1366"
  },
  {
    "name": "(사)행복터 부설 용인가정상담센터",
    "lat": 37.279866373,
    "lng": 127.111809433,
    "address": "경기도 용인시 기흥구 구갈로60번길 3, 골드프라자 801호",
    "phone": "031-286-1758"
  },
  {
    "name": "경기가정폭력상담소",
    "lat": 37.303098193,
    "lng": 126.840485107,
    "address": "경기도 안산시 상록구 용신로 164, 부림빌딩 3층",
    "phone": "031-419-1366"
  },
  {
    "name": "(사)안양과천군포의왕YWCA부설 가정폭력상담소",
    "lat": 37.376580707,
    "lng": 126.956406982,
    "address": "경기도 안양시 동안구 경수대로 604, 2층",
    "phone": "031-427-1366"
  },
  {
    "name": "평택가정상담센터",
    "lat": 37.064470177,
    "lng": 127.067322193,
    "address": "경기도 평택시 이충로 84-6, 평택평생학습센터 1층",
    "phone": "031-611-4251"
  },
  {
    "name": "(사)김포여성의전화(부) 가정폭력상담소",
    "lat": 37.62713274,
    "lng": 126.710669473,
    "address": "경기도 김포시 북변중로68번길 20, 2층",
    "phone": "031-986-0136"
  },
  {
    "name": "(사)정해복지부설 하남가정폭력상담소",
    "lat": 37.538691218,
    "lng": 127.203878609,
    "address": "경기도 하남시 신장로 130-5, 601-1호(덕풍동,계명빌딩)",
    "phone": "031-794-4111"
  },
  {
    "name": "여주가정폭력성폭력상담소",
    "lat": 37.293462166,
    "lng": 127.636944425,
    "address": "경기도 여주시 세종로 45번길 8",
    "phone": "031-885-7651"
  },
  {
    "name": "(사)비움채움 부설 남양주한마음가족상담소",
    "lat": 37.693417715,
    "lng": 127.212359233,
    "address": "경기도 남양주시 오남읍 진건오남로671번길 24",
    "phone": "031-574-7189"
  },
  {
    "name": "(사)사랑깊은뜰 부설 경기북부가정문제상담소",
    "lat": 37.749063745,
    "lng": 127.069555611,
    "address": "경기도 의정부시 장곡로596번길 19, 402호(신곡동, 골드타워)",
    "phone": "031-876-7545"
  },
  {
    "name": "구리 가정성폭력상담지원센터",
    "lat": 37.595220456,
    "lng": 127.128960996,
    "address": "경기도 구리시 아차산로 453, 여성행복센터 4층",
    "phone": "031-551-9976"
  },
  {
    "name": "(사)사랑깊은뜰 부설 양주가정성폭력상담소",
    "lat": 37.840915773,
    "lng": 127.062922737,
    "address": "경기도 양주시 독바위로 5, 남양상가 306호",
    "phone": "031-864-7545"
  },
  {
    "name": "원주 가정폭력·성폭력 통합상담소",
    "lat": 37.353282468,
    "lng": 127.944329474,
    "address": "강원도 원주시 갈머리2길 31, 사회복지센터307호",
    "phone": "033-765-1366"
  },
  {
    "name": "강릉 가정폭력성폭력상담소",
    "lat": 37.773310774,
    "lng": 128.913271206,
    "address": "강릉시 강릉대로 454 강릉시평생학습관 2층",
    "phone": "033-652-9556"
  },
  {
    "name": "동해가정폭력성폭력상담소",
    "lat": 37.517817887,
    "lng": 129.116763384,
    "address": "동해시 천곡동 중앙로188 2층",
    "phone": "033-535-4943"
  },
  {
    "name": "행복만들기상담소",
    "lat": 37.503597484,
    "lng": 127.996244502,
    "address": "횡성군 횡성읍 북천리 3번길 15, 115-62",
    "phone": "033-344-1366"
  },
  {
    "name": "태백가정폭력·성폭력통합상담소",
    "lat": 37.164216444,
    "lng": 128.984970119,
    "address": "태백시 번영로 234, 3층(태백시 통합가족센터)",
    "phone": "033-554-4005"
  },
  {
    "name": "속초YWCA 가정폭력상담소",
    "lat": 38.214979338,
    "lng": 128.590104731,
    "address": "강원도 속초시 번영로 184, 세광빌딩 2층",
    "phone": "033-635-3520"
  },
  {
    "name": "(사)너브내 가족상담센터 부설 홍천가족상담소",
    "lat": 37.6842394,
    "lng": 127.882347091,
    "address": "강원도 홍천군 홍천읍 남산마을길 1길 8",
    "phone": "033-433-1367"
  },
  {
    "name": "철원가정폭력상담소",
    "lat": 38.192187699,
    "lng": 127.374067468,
    "address": "강원도 철원군 갈말읍 텃골3길 17",
    "phone": "033-452-1566"
  },
  {
    "name": "청주가정폭력상담소",
    "lat": 36.642693025,
    "lng": 127.490006824,
    "address": "충북 청주시 상당구 상당로158번길5, 104호 (북문로2가동)",
    "phone": "043-257-0088"
  },
  {
    "name": "충주YWCA가정폭력상담소",
    "lat": 36.971472368,
    "lng": 127.927733351,
    "address": "충북 충주시 사직산 21길 34, 복합복지관 301호",
    "phone": "043-845-3288"
  },
  {
    "name": "제천 가정폭력상담소",
    "lat": 37.130503664,
    "lng": 128.210622592,
    "address": "충북 제천시 의림대로6길 32",
    "phone": "043-645-5690"
  },
  {
    "name": "대천가족성통합상담센터",
    "lat": 36.339096618,
    "lng": 126.612545293,
    "address": "충남 보령시 명천로 37",
    "phone": "041-936-7941"
  },
  {
    "name": "아산가정성통합상담센터",
    "lat": 36.763721866,
    "lng": 127.038069248,
    "address": "충남 아산시 배방읍 순천향로 1060",
    "phone": "041-546-9191"
  },
  {
    "name": "천안통합상담지원센터",
    "lat": 36.772047273,
    "lng": 127.128930488,
    "address": "충남 천안시 동남구 통정8로 5-24, 2층",
    "phone": "041-576-3288"
  },
  {
    "name": "공주시가족상담센터",
    "lat": 36.450336829,
    "lng": 127.123503322,
    "address": "충남 공주시 제민천3길 22(중학동)",
    "phone": "041-854-1366"
  },
  {
    "name": "해뜰통합상담소",
    "lat": 36.787024613,
    "lng": 127.003562751,
    "address": "아산시 번영로 113-19, 충무회관 3층",
    "phone": "041-547-5004"
  },
  {
    "name": "서산가정성통합센터",
    "lat": 36.779533274,
    "lng": 126.464755286,
    "address": "충남 서산시 율지8로 60, 2층",
    "phone": "041-668-8566"
  },
  {
    "name": "논산 가정·성통합상담센터",
    "lat": 36.201774067,
    "lng": 127.090992823,
    "address": "충남 논산시 중앙로 398번길 29-9, 3층",
    "phone": "041-736-8297"
  },
  {
    "name": "남원YWCA통합상담소",
    "lat": 35.412694026,
    "lng": 127.387910735,
    "address": "전북 남원시 동림로 45, 5층",
    "phone": "063-625-1318"
  },
  {
    "name": "전주가정상담센터 부설 가정폭력성폭력통합상담소",
    "lat": 35.823365632,
    "lng": 127.148351209,
    "address": "전북 전주시 완산구 노송광장로 7, 6층",
    "phone": "063-244-0227"
  },
  {
    "name": "(사)전주여성의전화 부설 가정폭력상담소",
    "lat": 35.809321629,
    "lng": 127.144705196,
    "address": "전북 전주시 완산구 매곡로 27",
    "phone": "063-287-7324"
  },
  {
    "name": "군산여성의전화 부설 가정폭력상담소",
    "lat": 35.98868275,
    "lng": 126.709352229,
    "address": "전북 군산시 구영7길8, 2층",
    "phone": "063-445-2286"
  },
  {
    "name": "군산가정상담센터 부설 가정폭력상담소",
    "lat": 35.98671754,
    "lng": 126.711100711,
    "address": "전북 군산시 대학로 36-1",
    "phone": "063-442-1560"
  },
  {
    "name": "익산가정상담센터 부설 가정폭력상담소",
    "lat": 35.94379103,
    "lng": 126.955374929,
    "address": "전북 익산시 인북로 168, 2층",
    "phone": "063-851-5113"
  },
  {
    "name": "익산여성의전화부설 가정폭력·성폭력 통합상담소",
    "lat": 35.941554795,
    "lng": 126.948034917,
    "address": "전북 익산시 익산대로 172-1",
    "phone": "063-858-9191"
  },
  {
    "name": "정읍가정상담센터 부설 가정폭력상담소",
    "lat": 35.576221748,
    "lng": 126.84747056,
    "address": "전북 정읍시 충정로 348, 2층",
    "phone": "063-535-8223"
  },
  {
    "name": "사단법인행복누리부설목포여성상담센터",
    "lat": 34.805329567,
    "lng": 126.428762596,
    "address": "목포시 신흥로83번길 5, 2층",
    "phone": "061-283-4552"
  },
  {
    "name": "여수여성상담센터",
    "lat": 34.746874302,
    "lng": 127.743956952,
    "address": "여수시 동문로 120",
    "phone": "061-654-5211"
  },
  {
    "name": "순천여성상담센터",
    "lat": 34.956923214,
    "lng": 127.483712443,
    "address": "순천시 호남길 3",
    "phone": "061-753-9900"
  },
  {
    "name": "광양여성상담센터",
    "lat": 34.973429089,
    "lng": 127.583331179,
    "address": "광양시 광양읍 성북길 39",
    "phone": "061-761-1254"
  },
  {
    "name": "고흥나누리상담센터",
    "lat": 34.60730461,
    "lng": 127.288731192,
    "address": "고흥군 고흥읍 봉동주공길 9, 2층",
    "phone": "061-832-1360"
  },
  {
    "name": "영암행복한가정상담소",
    "lat": 34.746392324,
    "lng": 126.48463236,
    "address": "영암군 삼호읍 녹색로 1113 세한대 정보관 8109호",
    "phone": "061-461-1366"
  },
  {
    "name": "무안열린가정상담센터",
    "lat": 34.988714199,
    "lng": 126.478915298,
    "address": "무안군 무안읍 무안로 507 월암빌딩 5층",
    "phone": "061-454-1365"
  },
  {
    "name": "영광여성상담센터",
    "lat": 35.279163059,
    "lng": 126.51355997,
    "address": "영광군 영광읍 중앙로 230-1",
    "phone": "061-352-1321"
  },
  {
    "name": "경북여성통합상담소",
    "lat": 36.030647363,
    "lng": 129.376898757,
    "address": "경북 포항시 남구 송림로10번길 6-2(송도동)",
    "phone": "054-284-0404"
  },
  {
    "name": "칠곡종합상담센터",
    "lat": 35.999955416,
    "lng": 128.404843251,
    "address": "경북 칠곡군 왜관읍 석전로 69-35",
    "phone": "054-973-8291"
  },
  {
    "name": "포항YWCA가정폭력상담소",
    "lat": 36.033499052,
    "lng": 129.360127637,
    "address": "경북 포항시 북구 용당로 66, 2층(용흥동)",
    "phone": "054-2775-4189"
  },
  {
    "name": "로뎀나무 부설 지음가정상담소",
    "lat": 36.02374471,
    "lng": 129.340582014,
    "address": "경북 포항시 남구 대이로 95, 3층",
    "phone": "054-726-2554"
  },
  {
    "name": "안동가정법률상담소 부설 가정폭력상담소",
    "lat": 36.564939075,
    "lng": 128.717029644,
    "address": "경북 안동시 안기천로 83-3, 2층",
    "phone": "054-856-4200"
  },
  {
    "name": "상주가정문제상담소",
    "lat": 36.566386456,
    "lng": 128.174001068,
    "address": "경북 상주시 함창읍 함창중앙로 73, 1층",
    "phone": "054-541-6116"
  },
  {
    "name": "경산가정폭력상담소",
    "lat": 35.826090794,
    "lng": 128.737754438,
    "address": "경북 경산시 경안로42길 7, 2층",
    "phone": "053-814-9191"
  },
  {
    "name": "진해가정상담센터",
    "lat": 35.145416493,
    "lng": 128.664753535,
    "address": "경남 창원시 진해구 태평로 50",
    "phone": "055-551-2332"
  },
  {
    "name": "마산가정상담센터",
    "lat": 35.234479473,
    "lng": 128.580371348,
    "address": "경남 창원시 마산회원구 양덕 옛3길 5",
    "phone": "055-296-9126"
  },
  {
    "name": "진주가정폭력상담소",
    "lat": 35.159979243,
    "lng": 128.10666614,
    "address": "경남 진주시 가좌길 74번길 9, 가좌사회복지관 분관 3층",
    "phone": "055-746-7988"
  },
  {
    "name": "사천YWCA가정폭력·성폭력통합상담소",
    "lat": 35.088183487,
    "lng": 128.096665654,
    "address": "경남 사천시 사천읍 수양로 126, 3층",
    "phone": "055-834-1253"
  },
  {
    "name": "(사)김해여성회부설 가정폭력상담소",
    "lat": 35.233895864,
    "lng": 128.874129561,
    "address": "경남 김해시 가야의길 92-25 2층",
    "phone": "055-326-6253"
  },
  {
    "name": "거제가정상담센터",
    "lat": 34.874606275,
    "lng": 128.687719978,
    "address": "경남 거제시 용소1길 35, 309호",
    "phone": "055-633-7638"
  },
  {
    "name": "통영시가정폭력상담소",
    "lat": 34.859195249,
    "lng": 128.432419298,
    "address": "경남 통영시 안개4길 94",
    "phone": "055-640-7795"
  },
  {
    "name": "양산가족상담센터",
    "lat": 35.339514367,
    "lng": 129.035879912,
    "address": "경남 양산시 서일동 2길 8. 2층",
    "phone": "055-366-4001"
  },
  {
    "name": "양산가정폭력상담소",
    "lat": 35.396545878,
    "lng": 129.166190627,
    "address": "경남 양산시 명동6길 19(명동)",
    "phone": "055-366-6661"
  },
  {
    "name": "고성가족상담소",
    "lat": 34.975682226,
    "lng": 128.329026523,
    "address": "경남 고성군 고성읍 중앙로 87-1 무지개아파트 상가 2층",
    "phone": "055-673-2911"
  },
  {
    "name": "보물섬가정행복상담소",
    "lat": 34.834953293,
    "lng": 127.897589216,
    "address": "경남 남해군 남해읍 화전로 16-9, 재향군인회관 3층",
    "phone": "055-864-1366"
  },
  {
    "name": "제주여성장애인상담소",
    "lat": 33.489309766,
    "lng": 126.523237311,
    "address": "제주 제주시 복지로3길 1-4 4층",
    "phone": "064-753-4982"
  },
  {
    "name": "제주가족사랑가정폭력·성폭력통합상담소",
    "lat": 33.496978819,
    "lng": 126.536446627,
    "address": "제주 제주시 연삼로 429, 3층",
    "phone": "064-726-3277"
  },
  {
    "name": "서귀포가정폭력·성폭력통합상담소",
    "lat": 33.249348746,
    "lng": 126.566333365,
    "address": "제주 서귀포시 중앙로42번길 46, 5층",
    "phone": "064-732-3279"
  }
]
